[
      {
        "lat": -7.087317645149684,
        "long": 110.10039642393582,
        "name": "Curug Sewu",
        "type": "wisata",
        "address": "Jl. Sri Wedari, Remboko, Curugsewu, Kec. Patean, Kabupaten Kendal, Jawa Tengah 51364",
        "kecamatan": "patean",
        "phone": "085290037492",
        "website": "",
        "images": [""]
      },
      {
        "lat": -6.902823132278221,
        "long": 110.06118227074064,
        "name": "Pantai Sendang Sikucing",
        "type": "wisata",
        "address": "Sendang Sikucing, Kec. Rowosari, Kabupaten Kendal, Jawa Tengah 51354",
        "kecamatan": "rowosari",
        "phone": "",
        "website": "",
        "images": [""]
      },
      {
        "lat": -6.890329124820977,
        "long": 110.10580559879875,
        "name": "Pantai Indah Kemangi",
        "type": "wisata",
        "address": "Jl Tambak/Persawahan, Dk, Srandu, Jungsemi, Kec. Kangkung, Kabupaten Kendal, Jawa Tengah",
        "kecamatan": "kangkung",
        "phone": "",
        "website": "",
        "images": [""]
      },
      {
        "lat": -6.902133720169742,
        "long": 110.06650815276977,
        "name": "Pantai Cahaya",
        "type": "wisata",
        "address": "Klampok, Sendang Sikucing, Kec. Rowosari, Kabupaten Kendal, Jawa Tengah 51354",
        "kecamatan": "rowosari",
        "phone": "",
        "website": "",
        "images": [""]
      },
      {
        "lat": -7.1016652226895225,
        "long": 110.27499499700578,
        "name": "Kolam Renang Boja",
        "type": "wisata",
        "address": "Jl. Raya Boja - Kaliwungu, Sapen, Boja, Kec. Boja, Kabupaten Kendal, Jawa Tengah 51381",
        "kecamatan": "boja",
        "phone": "0294572397",
        "website": "",
        "images": [""]
      },
      {
        "lat": -6.921575103420706,
        "long": 110.18308309120457,
        "name": "Tirto Arum Baru",
        "type": "wisata",
        "address": "Jalan Raya Soekarno-Hatta Barat KM. 2,7, Bugangin, Kec. Kendal, Kabupaten Kendal, Jawa Tengah 51314",
        "kecamatan": "kendal",
        "phone": "0294381858",
        "website": "",
        "images": [""]
      },
      {
        "lat": -7.093147984196723,
        "long": 110.27492998542515,
        "name": "River Walk",
        "type": "wisata",
        "address": "Jl. Veteran, Nagadibolo, Desa Ngadibolo, Kec. Boja, Kabupaten Kendal, Jawa Tengah 51381",
        "kecamatan": "boja",
        "phone": "02943670908",
        "website": "http://www.riverwalkboja.com/",
        "images": [""]
      },
      {
        "lat": -7.115070047836318,
        "long": 110.3422140122937,
        "name": "Santosa Stable",
        "type": "wisata",
        "address": "Lendoh, Leban, Kec. Boja, Kabupaten Kendal, Jawa Tengah 51381",
        "kecamatan": "boja",
        "phone": "081234567199",
        "website": "http://santosapark.com/",
        "images": [""]
      },
      {
        "lat": -7.079393948150764,
        "long": 110.17211201229333,
        "name": "Omah'e Opa",
        "type": "wisata",
        "address": "Dusun Pakeman, RT.003/RW.002, Pakeman, Sidodadi, Kec. Patean, Kabupaten Kendal, Jawa Tengah 51364",
        "kecamatan": "patean",
        "phone": "082323799949",
        "website": "https://kontakk.com/OmaheOpaTamanDonorojo",
        "images": [""]
      },
      {
        "lat": -7.164249866798471,
        "long": 110.33450544112999,
        "name": "Kebun Teh Medini",
        "type": "wisata",
        "address": "Limbangan, Jatirejo, Ngampel, Hutan, Ngesrepbalong, Limbangan, Kabupaten Kendal, Jawa Tengah 51357",
        "kecamatan": "limbangan",
        "phone": "",
        "website": "",
        "images": [""]
      },
      {
        "lat": -7.061033462855646,
        "long": 109.97998581370462,
        "name": "Curug Jeglong",
        "type": "wisata",
        "address": "Dukuh Jeplak, Desa Bendosari Kec. Plantungan, Dluwak, Jati, Plantungan, Kabupaten Kendal, Jawa Tengah 51362",
        "kecamatan": "plantungan",
        "phone": "082220295998",
        "website": "",
        "images": [""]
      },
      {
        "lat": -6.926696068197572,
        "long": 110.30134817302762,
        "name": "Pantai Wisata Ngebum",
        "type": "wisata",
        "address": "Merbuh, Mororejo, Kec. Kaliwungu, Kabupaten Kendal, Jawa Tengah",
        "kecamatan": "kaliwungu",
        "phone": "",
        "website": "",
        "images": [""]
      },
      {
        "lat": -7.190652516851109,
        "long": 110.30761295647328,
        "name": "Lembah Nirwana",
        "type": "wisata",
        "address": "Nambangan, Gondang, Limbangan, Kabupaten Kendal, Jawa Tengah 51383",
        "kecamatan": "limbangan",
        "phone": "",
        "website": "",
        "images": [""]
      },
      {
        "lat": -7.164121534744238,
        "long": 110.22759143812924,
        "name": "Selo Ajuno & Bligo",
        "type": "wisata",
        "address": "Watulawang, Kedungboto, Limbangan, Kabupaten Kendal, Jawa Tengah 51383",
        "kecamatan": "limbangan",
        "phone": "082298915163",
        "website": "",
        "images": [""]
      },
      {
        "lat": -7.179753868889387,
        "long": 110.2891831988016,
        "name": "Gubug Lereng Merangan",
        "type": "wisata",
        "address": "Jl. Sumowono - Boja, Krajan, Pakis, Limbangan, Kabupaten Kendal, Jawa Tengah 51383",
        "kecamatan": "limbangan",
        "phone": "082225921372",
        "website": "",
        "images": [""]
      },
      {
        "lat": -6.921772925135254,
        "long": 110.19707857881585,
        "name": "Hotel Anugrah",
        "type": "hotel",
        "address": "Jl. Pemuda No. 87, Kendal",
        "kecamatan": "kendal",
        "phone": "0294383825",
        "website": "",
        "images": [""]
      },
      {
        "lat": -6.92023833724686,
        "long": 110.20349981344623,
        "name": "Hotel Asri Baru",
        "type": "hotel",
        "address": "Jl. Masjid No. 2, Kendal",
        "kecamatan": "kendal",
        "phone": "0294381261",
        "website": "",
        "images": [""]
      },
      {
        "lat": -7.057922259744739,
        "long": 110.24279630263348,
        "name": "Hotel Bukit Sari",
        "type": "hotel",
        "address": "Jl. Goa Kiskendo, Singorojo",
        "kecamatan": "singorojo",
        "phone": "08132517633",
        "website": "",
        "images": [""]
      },
      {
        "lat": -7.149631792405841,
        "long": 110.3301125138697,
        "name": "Hotel Ceria",
        "type": "hotel",
        "address": "Jl. Air Panas Gonohorjo, Limbangan",
        "kecamatan": "limbangan",
        "phone": "08111871145",
        "website": "",
        "images": [""]
      },
      {
        "lat": -7.087726252691566,
        "long": 110.09873549539954,
        "name": "Hotel Curug Indah",
        "type": "hotel",
        "address": "Jl. Lingkar Curug Sewu, Patean",
        "kecamatan": "patean",
        "phone": "0294596218",
        "website": "",
        "images": [""]
      },
      {
        "lat": -6.9710700502480245,
        "long": 110.07608079405719,
        "name": "Hotel Damar Indah",
        "type": "hotel",
        "address": "Jl. Soekarno-Hatta No. 69, Weleri",
        "kecamatan": "weleri",
        "phone": "0294643463",
        "website": "",
        "images": [""]
      },
      {
        "lat": -7.124461030089926,
        "long": 110.27831496371016,
        "name": "Hotel Gading Sari",
        "type": "hotel",
        "address": "Jl. Kaligading, Boja",
        "kecamatan": "boja",
        "phone": "0294571145",
        "website": "",
        "images": [""]
      },
      {
        "lat": -6.964961213699622,
        "long": 110.07908594099263,
        "name": "Hotel Jatisari",
        "type": "hotel",
        "address": "Jl. Soeakrno-Hatta No. 34, Weleri",
        "kecamatan": "weleri",
        "phone": "0294643266",
        "website": "",
        "images": [""]
      },
      {
        "lat": -7.149704255082648,
        "long": 110.3301717287949,
        "name": "Hotel Jelita I",
        "type": "hotel",
        "address": "Jl. Air Panas Gonoharjo, Limbangan",
        "kecamatan": "limbangan",
        "phone": "029470775658",
        "website": "",
        "images": [""]
      },
      {
        "lat": -7.149704255082648,
        "long": 110.3301717287949,
        "name": "Hotel Jelita II",
        "type": "hotel",
        "address": "Jl. Air Panas Gonohoarjo, Limbangan",
        "kecamatan": "limbangan",
        "phone": "02945758778",
        "website": "",
        "images": [""]
      },
      {
        "lat": -6.92872509593428,
        "long": 110.207676836016,
        "name": "Hotel Mutiara",
        "type": "hotel",
        "address": "Jl. Soekarno-Hatta 63, Kendal",
        "kecamatan": "kendal",
        "phone": "0294381563",
        "website": "",
        "images": [""]
      },
      {
        "lat": -6.961825539912378,
        "long": 109.95845992910812,
        "name": "Hotel Panorama",
        "type": "hotel",
        "address": "Jl. Dadap Ayam, Pagergunung",
        "kecamatan": "pagergunung",
        "phone": "081901190982",
        "website": "",
        "images": [""]
      },
      {
        "lat": -7.046635461122081,
        "long": 110.05087199778067,
        "name": "Hotel Primagaya",
        "type": "hotel",
        "address": "Jl. Tambahrejo, Pageruyung",
        "kecamatan": "pageruyung",
        "phone": "0294654831",
        "website": "",
        "images": [""]
      },
      {
        "lat": -7.0901878129987,
        "long": 110.04985744699268,
        "name": "Hotel Pring Gading I",
        "type": "hotel",
        "address": "Jl. Sapen No. 63, Sukorejo",
        "kecamatan": "sukorejo",
        "phone": "0294451147",
        "website": "",
        "images": [""]
      },
      {
        "lat": -7.0904208500630945,
        "long": 110.05024281374943,
        "name": "Hotel Pringgading II",
        "type": "hotel",
        "address": "Jl. Sapen No. 69, Sukorejo",
        "kecamatan": "sukorejo",
        "phone": "02945701749",
        "website": "",
        "images": [""]
      },
      {
        "lat": -6.920396641305472,
        "long": 110.19635650181326,
        "name": "Hotel Sae Inn",
        "type": "hotel",
        "address": "Jl. Soekarno-Hatta No. 338, Kendal",
        "kecamatan": "kendal",
        "phone": "0294388338",
        "website": "",
        "images": [""]
      },
      {
        "lat": -7.011744187983106,
        "long": 110.05601475767158,
        "name": "Hotel Srikandi",
        "type": "hotel",
        "address": "Jl. Pagergunung, Pageruyung",
        "kecamatan": "pageruyung",
        "phone": "08122898181",
        "website": "",
        "images": [""]
      },
      {
        "lat": -6.939809345180571,
        "long": 110.25580526742945,
        "name": "Hotel Sri Roro Indah",
        "type": "hotel",
        "address": "Jl. Arteri KM 19, Kaliwungu",
        "kecamatan": "kaliwungu",
        "phone": "081227210100",
        "website": "",
        "images": [""]
      },
      {
        "lat": -6.9304511265568065,
        "long": 110.16970621199766,
        "name": "Hotel Srimulyo",
        "type": "hotel",
        "address": "Jl. Mataram Tambakrejo, Patebon",
        "kecamatan": "patebon",
        "phone": "02945701749",
        "website": "",
        "images": [""]
      },
      {
        "lat": -6.920846825955422,
        "long": 110.18313448008095,
        "name": "Hotel Tirto Arum",
        "type": "hotel",
        "address": "Jl. Soekarno-Hatta KM 2.7, Kendal",
        "kecamatan": "kendal",
        "phone": "0294381868",
        "website": "",
        "images": [""]
      },
      {
        "lat": -6.918252785147135,
        "long": 110.17750124534415,
        "name": "Al Dilla",
        "type": "kuliner",
        "address": "Jl. Soekarno-Hatta, Kendal",
        "kecamatan": "kendal",
        "phone": "0294388555",
        "website": "",
        "images": [""]
      },
      {
        "lat": -7.001270372173617,
        "long": 110.06834933066337,
        "name": "Alam Asri",
        "type": "kuliner",
        "address": "Jl. Besakor, Weleri",
        "kecamatan": "weleri",
        "phone": "087845629102",
        "website": "",
        "images": [""]
      },
      {
        "lat": -6.954714002156329,
        "long": 110.09258168462617,
        "name": "Kali Pening",
        "type": "kuliner",
        "address": "Jl. Seokarno-Hatta, Jenarsari",
        "kecamatan": "jenarsari",
        "phone": "08170567899",
        "website": "",
        "images": [""]
      },
      {
        "lat": -6.970694305637166,
        "long": 110.07624602880506,
        "name": "Gemar Ikan",
        "type": "kuliner",
        "address": "Jl. Soekarno-Hatta, Jenarsari",
        "kecamatan": "jenarsari",
        "phone": "",
        "website": "",
        "images": [""]
      },
      {
        "lat": -6.92848831317089,
        "long": 110.13755059643893,
        "name": "Larasati",
        "type": "kuliner",
        "address": "Jl. Gondong, Cepiring",
        "kecamatan": "cepiring",
        "phone": "",
        "website": "",
        "images": [""]
      },
      {
        "lat": -6.938490061472486,
        "long": 110.25331285342779,
        "name": "Kurnia Jawa Timur",
        "type": "kuliner",
        "address": "Jl. Lingkar, Kaliwungu",
        "kecamatan": "kaliwungu",
        "phone": "082142423456",
        "website": "",
        "images": [""]
      },
      {
        "lat": -6.953542329022883,
        "long": 110.09747631841856,
        "name": "Sari Rasa",
        "type": "kuliner",
        "address": "Jl. Soekarno-Hatta, Jenarsari",
        "kecamatan": "jenarsari",
        "phone": "0294641888",
        "website": "",
        "images": [""]
      },
      {
        "lat": -6.953095301425631,
        "long": 110.23966904229684,
        "name": "Salsabil",
        "type": "kuliner",
        "address": "Jl. Raya Karang Tengah",
        "kecamatan": "kendal",
        "phone": "0294381118",
        "website": "",
        "images": [""]
      },
      {
        "lat": -6.943926017037586,
        "long": 110.26026277728046,
        "name": "Sakinah",
        "type": "kuliner",
        "address": "Jl. Arteri Mororejo, Kaliwungu",
        "kecamatan": "kaliwungu",
        "phone": "",
        "website": "",
        "images": [""]
      },
      {
        "lat": -6.957360981750217,
        "long": 110.09551851382462,
        "name": "Putra Jawa Timur",
        "type": "kuliner",
        "address": "Kompek Terminal Bahurekso",
        "kecamatan": "gemuh",
        "phone": "",
        "website": "",
        "images": [""]
      },
      {
        "lat": -6.9227324904046155,
        "long": 110.17618986733095,
        "name": "Selera",
        "type": "kuliner",
        "address": "Jl. Soekarno-Hatta, Kendal",
        "kecamatan": "kendal",
        "phone": "",
        "website": "",
        "images": [""]
      },
      {
        "lat": -6.962438306814087,
        "long": 110.05462270179524,
        "name": "Cafe Borneo",
        "type": "kuliner",
        "address": "Jl. Karang Anom, Weleri",
        "kecamatan": "weleri",
        "phone": "",
        "website": "",
        "images": [""]
      },
      {
        "lat": -6.919760225621725,
        "long": 110.17460157038644,
        "name": "Mak Nyuss",
        "type": "kuliner",
        "address": "Jl. Soekarno-Hatta, Patebon",
        "kecamatan": "patebon",
        "phone": "081325852134",
        "website": "",
        "images": [""]
      },
      {
        "lat": -6.918873558100732,
        "long": 110.19847982348547,
        "name": "Soto Sedaap",
        "type": "kuliner",
        "address": "Jl. Pemuda Langenharjo",
        "kecamatan": "kendal",
        "phone": "081327391232",
        "website": "",
        "images": [""]
      },
      {
        "lat": -6.920169793250409,
        "long": 110.20480445767154,
        "name": "RM. Hj. Subagiyo",
        "type": "kuliner",
        "address": "Jl. Laut No. 3, Kendal",
        "kecamatan": "kendal",
        "phone": "081325018421",
        "website": "",
        "images": [""]
      }
]